[
    {
        "name": "Canteen",
        "lat": 42.05042671221635,
        "long": -70.188190257671
    },
    {
        "name":  "Fanizzi's", 
        "lat": 42.058460314382145,
        "long": -70.17417038026709
    },
    {
        "name": "Far Land Provisions", 
        "lat": 42.05495473426212,
        "long": -70.18481221545382
    },
    {
        "name": "Jimmy's Hideaway",
        "lat": 42.04824061887845,
        "long": -70.18922535777045
    },
    {
        "name": "Joon Bar",
        "lat": 42.04592106054985,
        "long": -70.19162757312564
    },
    {
        "name": "Lobster Pot",
        "lat": 42.05217724328756,
        "long": -70.18468681413914
    },
    {
        "name": "The Landing Bistro and Bar",
        "lat": 42.05294297233715,
        "long": -70.18464385222951
    },
    {
        "name": "The Mews",
        "lat": 42.05538855691992,
        "long": -70.18066058924296
    }
]